[
  {
    "iata": "ATL",
    "icao": "KATL",
    "name": "Hartsfield - Jackson Atlanta International Airport",
    "city": "Atlanta",
    "lat": 33.6366996111,
    "lon": -84.427864,
    "numRoutes": 364088,
    "numDestinations": 127,
    "rank": 1,
    "flights24": 219961,
    "flights25": 226480,
    "flights26": 233905,
    "flights27": 242244,
    "flights28": 251499
  },
  {
    "iata": "SLC",
    "icao": "KSLC",
    "name": "Salt Lake City International Airport",
    "city": "Salt Lake City",
    "lat": 40.7883933333,
    "lon": -111.9777733333,
    "numRoutes": 96503,
    "numDestinations": 56,
    "rank": 2
  },
  {
    "iata": "MSP",
    "icao": "KMSP",
    "name": "Minneapolis-St Paul International/Wold-Chamberlain Airport",
    "city": "Minneapolis",
    "lat": 44.8819722222,
    "lon": -93.2217777778,
    "numRoutes": 95190,
    "numDestinations": 74,
    "rank": 3
  },
  {
    "iata": "DTW",
    "icao": "KDTW",
    "name": "Detroit Metro Wayne County Airport",
    "city": "Detroit",
    "lat": 42.2124444444,
    "lon": -83.3533888889,
    "numRoutes": 88075,
    "numDestinations": 56,
    "rank": 4
  },
  {
    "iata": "LAX",
    "icao": "KLAX",
    "name": "Los Angeles International Airport",
    "city": "Los Angeles",
    "lat": 33.9424963889,
    "lon": -118.4080486111,
    "numRoutes": 54758,
    "numDestinations": 31,
    "rank": 5
  },
  {
    "iata": "SEA",
    "icao": "KSEA",
    "name": "Seattle-Tacoma International Airport",
    "city": "Seattle",
    "lat": 47.4498888889,
    "lon": -122.3117777778,
    "numRoutes": 51528,
    "numDestinations": 34,
    "rank": 6
  },
  {
    "iata": "JFK",
    "icao": "KJFK",
    "name": "John F Kennedy International Airport",
    "city": "New York",
    "lat": 40.6399277778,
    "lon": -73.7786925,
    "numRoutes": 40079,
    "numDestinations": 28,
    "rank": 7
  },
  {
    "iata": "MCO",
    "icao": "KMCO",
    "name": "Orlando International Airport",
    "city": "Orlando",
    "lat": 28.4293888889,
    "lon": -81.309,
    "numRoutes": 35968,
    "numDestinations": 11,
    "rank": 8
  },
  {
    "iata": "LGA",
    "icao": "KLGA",
    "name": "Laguardia Airport",
    "city": "New York",
    "lat": 40.77725,
    "lon": -73.8726111111,
    "numRoutes": 33689,
    "numDestinations": 17,
    "rank": 9
  },
  {
    "iata": "BOS",
    "icao": "KBOS",
    "name": "General Edward Lawrence Logan International Airport",
    "city": "Boston",
    "lat": 42.3629444444,
    "lon": -71.0063888889,
    "numRoutes": 27185,
    "numDestinations": 22,
    "rank": 10
  },
  {
    "iata": "LAS",
    "icao": "KLAS",
    "name": "Harry Reid International Airport",
    "city": "Las Vegas",
    "lat": 36.0800438889,
    "lon": -115.1522347222,
    "numRoutes": 24576,
    "numDestinations": 10,
    "rank": 11
  },
  {
    "iata": "TPA",
    "icao": "KTPA",
    "name": "Tampa International Airport",
    "city": "Tampa",
    "lat": 27.9754722222,
    "lon": -82.53325,
    "numRoutes": 23913,
    "numDestinations": 11,
    "rank": 12
  },
  {
    "iata": "FLL",
    "icao": "KFLL",
    "name": "Fort Lauderdale/Hollywood International Airport",
    "city": "Fort Lauderdale",
    "lat": 26.0716666667,
    "lon": -80.1496944444,
    "numRoutes": 23240,
    "numDestinations": 10,
    "rank": 13
  },
  {
    "iata": "DEN",
    "icao": "KDEN",
    "name": "Denver International Airport",
    "city": "Denver",
    "lat": 39.8616666667,
    "lon": -104.6731666667,
    "numRoutes": 20317,
    "numDestinations": 9,
    "rank": 14
  },
  {
    "iata": "PHX",
    "icao": "KPHX",
    "name": "Phoenix Sky Harbor International Airport",
    "city": "Phoenix",
    "lat": 33.4342777778,
    "lon": -112.0115833333,
    "numRoutes": 19522,
    "numDestinations": 6,
    "rank": 15
  },
  {
    "iata": "DFW",
    "icao": "KDFW",
    "name": "Dallas-Fort Worth International Airport",
    "city": "Dallas-Fort Worth",
    "lat": 32.8972330556,
    "lon": -97.0376947222,
    "numRoutes": 18763,
    "numDestinations": 8,
    "rank": 16
  },
  {
    "iata": "MIA",
    "icao": "KMIA",
    "name": "Miami International Airport",
    "city": "Miami",
    "lat": 25.7953611111,
    "lon": -80.2901158333,
    "numRoutes": 17496,
    "numDestinations": 8,
    "rank": 17,
    "flights24": 10773,
    "flights25": 11078,
    "flights26": 11541,
    "flights27": 12007,
    "flights28": 12475
  },
  {
    "iata": "AUS",
    "icao": "KAUS",
    "name": "Austin-Bergstrom International Airport",
    "city": "Austin",
    "lat": 30.1945272222,
    "lon": -97.6698761111,
    "numRoutes": 17187,
    "numDestinations": 9,
    "rank": 18,
    "flights24": 12509,
    "flights25": 13417,
    "flights26": 14202,
    "flights27": 14847,
    "flights28": 15340
  },
  {
    "iata": "RDU",
    "icao": "KRDU",
    "name": "Raleigh-Durham International Airport",
    "city": "Raleigh/Durham",
    "lat": 35.8776388889,
    "lon": -78.7874722222,
    "numRoutes": 16974,
    "numDestinations": 14,
    "rank": 19,
    "flights24": 11025,
    "flights25": 11830,
    "flights26": 12698,
    "flights27": 13628,
    "flights28": 14621
  },
  {
    "iata": "SFO",
    "icao": "KSFO",
    "name": "San Francisco International Airport",
    "city": "San Francisco",
    "lat": 37.6188055556,
    "lon": -122.3754166667,
    "numRoutes": 15868,
    "numDestinations": 8,
    "rank": 20
  },
  {
    "iata": "RSW",
    "icao": "KRSW",
    "name": "Southwest Florida International Airport",
    "city": "Fort Myers",
    "lat": 26.5361666667,
    "lon": -81.7551666667,
    "numRoutes": 14957,
    "numDestinations": 7,
    "rank": 21
  },
  {
    "iata": "ORD",
    "icao": "KORD",
    "name": "Chicago O'Hare International Airport",
    "city": "Chicago",
    "lat": 41.9769402778,
    "lon": -87.9081497222,
    "numRoutes": 13437,
    "numDestinations": 7,
    "rank": 22
  },
  {
    "iata": "SAN",
    "icao": "KSAN",
    "name": "San Diego International Airport",
    "city": "San Diego",
    "lat": 32.7335627778,
    "lon": -117.1896633333,
    "numRoutes": 13375,
    "numDestinations": 6,
    "rank": 23
  },
  {
    "iata": "CVG",
    "icao": "KCVG",
    "name": "Cincinnati/Northern Kentucky International Airport",
    "city": "Covington",
    "lat": 39.0488375,
    "lon": -84.6678208333,
    "numRoutes": 12586,
    "numDestinations": 13,
    "rank": 24
  },
  {
    "iata": "DCA",
    "icao": "KDCA",
    "name": "Ronald Reagan Washington Ntl Airport",
    "city": "Washington",
    "lat": 38.8514402778,
    "lon": -77.0377213889,
    "numRoutes": 12173,
    "numDestinations": 6,
    "rank": 25
  },
  {
    "iata": "BNA",
    "icao": "KBNA",
    "name": "Nashville International Airport",
    "city": "Nashville",
    "lat": 36.124475,
    "lon": -86.6781805556,
    "numRoutes": 11643,
    "numDestinations": 7,
    "rank": 26
  },
  {
    "iata": "IAH",
    "icao": "KIAH",
    "name": "George Bush Intcntl/Houston Airport",
    "city": "Houston",
    "lat": 29.9844352778,
    "lon": -95.3414425,
    "numRoutes": 10393,
    "numDestinations": 6,
    "rank": 27
  },
  {
    "iata": "CLT",
    "icao": "KCLT",
    "name": "Charlotte/Douglas International Airport",
    "city": "Charlotte",
    "lat": 35.21375,
    "lon": -80.9490555556,
    "numRoutes": 9816,
    "numDestinations": 4,
    "rank": 28,
    "flights24": 5786,
    "flights25": 5820,
    "flights26": 5847,
    "flights27": 5867,
    "flights28": 5880
  },
  {
    "iata": "MSY",
    "icao": "KMSY",
    "name": "Louis Armstrong New Orleans International Airport",
    "city": "New Orleans",
    "lat": 29.9932777778,
    "lon": -90.2590277778,
    "numRoutes": 9328,
    "numDestinations": 6,
    "rank": 29
  },
  {
    "iata": "PDX",
    "icao": "KPDX",
    "name": "Portland International Airport",
    "city": "Portland",
    "lat": 45.5887088611,
    "lon": -122.5968694167,
    "numRoutes": 9195,
    "numDestinations": 7,
    "rank": 30
  },
  {
    "iata": "MCI",
    "icao": "KMCI",
    "name": "Kansas City International Airport",
    "city": "Kansas City",
    "lat": 39.2976111111,
    "lon": -94.7138888889,
    "numRoutes": 9146,
    "numDestinations": 5,
    "rank": 31
  },
  {
    "iata": "PBI",
    "icao": "KPBI",
    "name": "Palm Beach International Airport",
    "city": "West Palm Beach",
    "lat": 26.6831616667,
    "lon": -80.0955919444,
    "numRoutes": 9009,
    "numDestinations": 6,
    "rank": 32
  },
  {
    "iata": "BWI",
    "icao": "KBWI",
    "name": "Baltimore/Washington International Thurgood Marshall Airport",
    "city": "Baltimore",
    "lat": 39.1757283333,
    "lon": -76.6689911111,
    "numRoutes": 8901,
    "numDestinations": 4,
    "rank": 33
  },
  {
    "iata": "SAT",
    "icao": "KSAT",
    "name": "San Antonio International Airport",
    "city": "San Antonio",
    "lat": 29.5339583333,
    "lon": -98.4690569444,
    "numRoutes": 8258,
    "numDestinations": 5,
    "rank": 34
  },
  {
    "iata": "EWR",
    "icao": "KEWR",
    "name": "Newark Liberty International Airport",
    "city": "Newark",
    "lat": 40.6924798333,
    "lon": -74.1686867778,
    "numRoutes": 7833,
    "numDestinations": 4,
    "rank": 35
  },
  {
    "iata": "PHL",
    "icao": "KPHL",
    "name": "Philadelphia International Airport",
    "city": "Philadelphia",
    "lat": 39.8720838889,
    "lon": -75.2406630556,
    "numRoutes": 7820,
    "numDestinations": 4,
    "rank": 36
  },
  {
    "iata": "JAX",
    "icao": "KJAX",
    "name": "Jacksonville International Airport",
    "city": "Jacksonville",
    "lat": 30.4940455556,
    "lon": -81.6878466667,
    "numRoutes": 7258,
    "numDestinations": 3,
    "rank": 37
  },
  {
    "iata": "IND",
    "icao": "KIND",
    "name": "Indianapolis International Airport",
    "city": "Indianapolis",
    "lat": 39.7173055556,
    "lon": -86.2946388889,
    "numRoutes": 6702,
    "numDestinations": 5,
    "rank": 38
  },
  {
    "iata": "STL",
    "icao": "KSTL",
    "name": "St Louis Lambert International Airport",
    "city": "St Louis",
    "lat": 38.7486982222,
    "lon": -90.3700257222,
    "numRoutes": 6611,
    "numDestinations": 4,
    "rank": 39
  },
  {
    "iata": "SNA",
    "icao": "KSNA",
    "name": "John Wayne/Orange County Airport",
    "city": "Santa Ana",
    "lat": 33.6756619444,
    "lon": -117.8682330556,
    "numRoutes": 6407,
    "numDestinations": 4,
    "rank": 40
  },
  {
    "iata": "SMF",
    "icao": "KSMF",
    "name": "Sacramento International Airport",
    "city": "Sacramento",
    "lat": 38.6954444444,
    "lon": -121.5907777778,
    "numRoutes": 6269,
    "numDestinations": 4,
    "rank": 41
  },
  {
    "iata": "MEM",
    "icao": "KMEM",
    "name": "Memphis International Airport",
    "city": "Memphis",
    "lat": 35.0424113889,
    "lon": -89.9766791667,
    "numRoutes": 5884,
    "numDestinations": 3,
    "rank": 42
  },
  {
    "iata": "CHS",
    "icao": "KCHS",
    "name": "Charleston Afb/International Airport",
    "city": "Charleston",
    "lat": 32.8986388889,
    "lon": -80.0405277778,
    "numRoutes": 5865,
    "numDestinations": 1,
    "rank": 43
  },
  {
    "iata": "MKE",
    "icao": "KMKE",
    "name": "General Mitchell International Airport",
    "city": "Milwaukee",
    "lat": 42.9469319444,
    "lon": -87.8970644444,
    "numRoutes": 5854,
    "numDestinations": 3,
    "rank": 44
  },
  {
    "iata": "ANC",
    "icao": "PANC",
    "name": "Ted Stevens Anchorage International Airport",
    "city": "Anchorage",
    "lat": 61.1740847222,
    "lon": -149.9981375,
    "numRoutes": 5550,
    "numDestinations": 7,
    "rank": 45
  },
  {
    "iata": "SRQ",
    "icao": "KSRQ",
    "name": "Sarasota/Bradenton International Airport",
    "city": "Sarasota/Bradenton",
    "lat": 27.3954444444,
    "lon": -82.5543888889,
    "numRoutes": 5354,
    "numDestinations": 4,
    "rank": 46
  },
  {
    "iata": "HNL",
    "icao": "PHNL",
    "name": "Daniel K Inouye International Airport",
    "city": "Honolulu",
    "lat": 21.3178172222,
    "lon": -157.9202275,
    "numRoutes": 5280,
    "numDestinations": 5,
    "rank": 47
  },
  {
    "iata": "ORF",
    "icao": "KORF",
    "name": "Norfolk International Airport",
    "city": "Norfolk",
    "lat": 36.8946041667,
    "lon": -76.2012291667,
    "numRoutes": 5036,
    "numDestinations": 2,
    "rank": 48
  },
  {
    "iata": "CLE",
    "icao": "KCLE",
    "name": "Cleveland-Hopkins International Airport",
    "city": "Cleveland",
    "lat": 41.4094069444,
    "lon": -81.8546911111,
    "numRoutes": 5032,
    "numDestinations": 4,
    "rank": 49
  },
  {
    "iata": "CMH",
    "icao": "KCMH",
    "name": "John Glenn Columbus International Airport",
    "city": "Columbus",
    "lat": 39.9969466667,
    "lon": -82.8921591667,
    "numRoutes": 4858,
    "numDestinations": 2,
    "rank": 50
  },
  {
    "iata": "PNS",
    "icao": "KPNS",
    "name": "Pensacola International Airport",
    "city": "Pensacola",
    "lat": 30.4734166667,
    "lon": -87.1866111111,
    "numRoutes": 4852,
    "numDestinations": 1,
    "rank": 51
  },
  {
    "iata": "BDL",
    "icao": "KBDL",
    "name": "Bradley International Airport",
    "city": "Windsor Locks",
    "lat": 41.9390322222,
    "lon": -72.6843158333,
    "numRoutes": 4800,
    "numDestinations": 3,
    "rank": 52
  },
  {
    "iata": "SJU",
    "icao": "TJSJ",
    "name": "Luis Munoz Marin International Airport",
    "city": "San Juan",
    "lat": 18.4393991667,
    "lon": -66.0021333333,
    "numRoutes": 4785,
    "numDestinations": 4,
    "rank": 53
  },
  {
    "iata": "IAD",
    "icao": "KIAD",
    "name": "Washington Dulles International Airport",
    "city": "Washington",
    "lat": 38.9474444444,
    "lon": -77.4599444444,
    "numRoutes": 4683,
    "numDestinations": 5,
    "rank": 54
  },
  {
    "iata": "SAV",
    "icao": "KSAV",
    "name": "Savannah/Hilton Head International Airport",
    "city": "Savannah",
    "lat": 32.1275833333,
    "lon": -81.2021388889,
    "numRoutes": 4668,
    "numDestinations": 2,
    "rank": 55
  },
  {
    "iata": "RIC",
    "icao": "KRIC",
    "name": "Richmond International Airport",
    "city": "Richmond",
    "lat": 37.5051811111,
    "lon": -77.3197386111,
    "numRoutes": 4639,
    "numDestinations": 1,
    "rank": 56
  },
  {
    "iata": "BHM",
    "icao": "KBHM",
    "name": "Birmingham-Shuttlesworth International Airport",
    "city": "Birmingham",
    "lat": 33.5638888889,
    "lon": -86.7523055556,
    "numRoutes": 4474,
    "numDestinations": 1,
    "rank": 57
  },
  {
    "iata": "GEG",
    "icao": "KGEG",
    "name": "Spokane International Airport",
    "city": "Spokane",
    "lat": 47.6190277778,
    "lon": -117.5352222222,
    "numRoutes": 4422,
    "numDestinations": 4,
    "rank": 58
  },
  {
    "iata": "PIT",
    "icao": "KPIT",
    "name": "Pittsburgh International Airport",
    "city": "Pittsburgh",
    "lat": 40.4914166667,
    "lon": -80.2326944444,
    "numRoutes": 4240,
    "numDestinations": 2,
    "rank": 59
  },
  {
    "iata": "HOU",
    "icao": "KHOU",
    "name": "William P Hobby Airport",
    "city": "Houston",
    "lat": 29.6457998333,
    "lon": -95.2772315833,
    "numRoutes": 4099,
    "numDestinations": 1,
    "rank": 60
  },
  {
    "iata": "GRR",
    "icao": "KGRR",
    "name": "Gerald R Ford International Airport",
    "city": "Grand Rapids",
    "lat": 42.8808333333,
    "lon": -85.5228055556,
    "numRoutes": 3994,
    "numDestinations": 3,
    "rank": 61
  },
  {
    "iata": "ECP",
    "icao": "KECP",
    "name": "Northwest Florida Beaches International Airport",
    "city": "Panama City",
    "lat": 30.3582408333,
    "lon": -85.7956022222,
    "numRoutes": 3769,
    "numDestinations": 1,
    "rank": 62
  },
  {
    "iata": "DAL",
    "icao": "KDAL",
    "name": "Dallas Love Field",
    "city": "Dallas",
    "lat": 32.8459447222,
    "lon": -96.8508766667,
    "numRoutes": 3412,
    "numDestinations": 1,
    "rank": 63
  },
  {
    "iata": "GSP",
    "icao": "KGSP",
    "name": "Greenville Spartanburg International Airport",
    "city": "Greer",
    "lat": 34.8956711111,
    "lon": -82.2188594444,
    "numRoutes": 3326,
    "numDestinations": 1,
    "rank": 64
  },
  {
    "iata": "SDF",
    "icao": "KSDF",
    "name": "Louisville Muhammad Ali International Airport",
    "city": "Louisville",
    "lat": 38.174085,
    "lon": -85.7364936111,
    "numRoutes": 3306,
    "numDestinations": 1,
    "rank": 65
  },
  {
    "iata": "VPS",
    "icao": "KVPS",
    "name": "Eglin Afb/Destin-Ft Walton Beach Airport",
    "city": "Valparaiso/Destin-Ft Walton Beach",
    "lat": 30.4832194167,
    "lon": -86.5260443333,
    "numRoutes": 3250,
    "numDestinations": 1,
    "rank": 66
  },
  {
    "iata": "JAC",
    "icao": "KJAC",
    "name": "Jackson Hole Airport",
    "city": "Jackson",
    "lat": 43.6073333333,
    "lon": -110.73775,
    "numRoutes": 3090,
    "numDestinations": 4,
    "rank": 67
  },
  {
    "iata": "BOI",
    "icao": "KBOI",
    "name": "Boise Air Trml/Gowen Field",
    "city": "Boise",
    "lat": 43.5643611111,
    "lon": -116.2228611111,
    "numRoutes": 3004,
    "numDestinations": 3,
    "rank": 68
  },
  {
    "iata": "EYW",
    "icao": "KEYW",
    "name": "Key West International Airport",
    "city": "Key West",
    "lat": 24.5561197222,
    "lon": -81.7599558333,
    "numRoutes": 2998,
    "numDestinations": 1,
    "rank": 69
  },
  {
    "iata": "LIT",
    "icao": "KLIT",
    "name": "Bill And Hillary Clinton Ntl/Adams Field",
    "city": "Little Rock",
    "lat": 34.7294413889,
    "lon": -92.2247772222,
    "numRoutes": 2962,
    "numDestinations": 1,
    "rank": 70
  },
  {
    "iata": "STT",
    "icao": "TIST",
    "name": "Cyril E King Airport",
    "city": "Charlotte Amalie",
    "lat": 18.3373055556,
    "lon": -64.9733333333,
    "numRoutes": 2888,
    "numDestinations": 4,
    "rank": 71
  },
  {
    "iata": "BZN",
    "icao": "KBZN",
    "name": "Bozeman Yellowstone International Airport",
    "city": "Bozeman",
    "lat": 45.7772357778,
    "lon": -111.1502602778,
    "numRoutes": 2888,
    "numDestinations": 5,
    "rank": 72
  },
  {
    "iata": "OMA",
    "icao": "KOMA",
    "name": "Eppley Airfield",
    "city": "Omaha",
    "lat": 41.3031666667,
    "lon": -95.8940555556,
    "numRoutes": 2765,
    "numDestinations": 2,
    "rank": 73
  },
  {
    "iata": "GSO",
    "icao": "KGSO",
    "name": "Piedmont Triad International Airport",
    "city": "Greensboro",
    "lat": 36.1013266667,
    "lon": -79.9411227778,
    "numRoutes": 2746,
    "numDestinations": 2,
    "rank": 74
  },
  {
    "iata": "DAB",
    "icao": "KDAB",
    "name": "Daytona Beach International Airport",
    "city": "Daytona Beach",
    "lat": 29.1799088889,
    "lon": -81.0580422222,
    "numRoutes": 2727,
    "numDestinations": 1,
    "rank": 75
  },
  {
    "iata": "SJC",
    "icao": "KSJC",
    "name": "Norman Y Mineta San Jose International Airport",
    "city": "San Jose",
    "lat": 37.3629947222,
    "lon": -121.9286205556,
    "numRoutes": 2595,
    "numDestinations": 4,
    "rank": 76
  },
  {
    "iata": "BUF",
    "icao": "KBUF",
    "name": "Buffalo Niagara International Airport",
    "city": "Buffalo",
    "lat": 42.9404272222,
    "lon": -78.7305697222,
    "numRoutes": 2592,
    "numDestinations": 2,
    "rank": 77
  },
  {
    "iata": "ONT",
    "icao": "KONT",
    "name": "Ontario International Airport",
    "city": "Ontario",
    "lat": 34.0560141667,
    "lon": -117.6011875,
    "numRoutes": 2579,
    "numDestinations": 2,
    "rank": 78
  },
  {
    "iata": "OKC",
    "icao": "KOKC",
    "name": "Will Rogers World Airport",
    "city": "Oklahoma City",
    "lat": 35.3930740278,
    "lon": -97.6007617222,
    "numRoutes": 2550,
    "numDestinations": 1,
    "rank": 79
  },
  {
    "iata": "OGG",
    "icao": "PHOG",
    "name": "Kahului Airport",
    "city": "Kahului",
    "lat": 20.8986486111,
    "lon": -156.4304586111,
    "numRoutes": 2432,
    "numDestinations": 3,
    "rank": 80
  },
  {
    "iata": "JAN",
    "icao": "KJAN",
    "name": "Jackson-Medgar Wiley Evers International Airport",
    "city": "Jackson",
    "lat": 32.3111666667,
    "lon": -90.0758888889,
    "numRoutes": 2397,
    "numDestinations": 1,
    "rank": 81
  },
  {
    "iata": "MLB",
    "icao": "KMLB",
    "name": "Melbourne Orlando International Airport",
    "city": "Melbourne",
    "lat": 28.10275,
    "lon": -80.64525,
    "numRoutes": 2330,
    "numDestinations": 1,
    "rank": 82
  },
  {
    "iata": "TUS",
    "icao": "KTUS",
    "name": "Tucson International Airport",
    "city": "Tucson",
    "lat": 32.1160691667,
    "lon": -110.9410138889,
    "numRoutes": 2253,
    "numDestinations": 3,
    "rank": 83
  },
  {
    "iata": "MYR",
    "icao": "KMYR",
    "name": "Myrtle Beach International Airport",
    "city": "Myrtle Beach",
    "lat": 33.6797411111,
    "lon": -78.9283213889,
    "numRoutes": 2188,
    "numDestinations": 3,
    "rank": 84
  },
  {
    "iata": "HSV",
    "icao": "KHSV",
    "name": "Huntsville International-Carl T Jones Field",
    "city": "Huntsville",
    "lat": 34.6371969444,
    "lon": -86.7750541667,
    "numRoutes": 1914,
    "numDestinations": 1,
    "rank": 85
  },
  {
    "iata": "MSN",
    "icao": "KMSN",
    "name": "Dane County Regional/Truax Field",
    "city": "Madison",
    "lat": 43.1398791389,
    "lon": -89.3375044722,
    "numRoutes": 1835,
    "numDestinations": 3,
    "rank": 86
  },
  {
    "iata": "CAE",
    "icao": "KCAE",
    "name": "Columbia Metro Airport",
    "city": "Columbia",
    "lat": 33.9388377778,
    "lon": -81.1195361111,
    "numRoutes": 1800,
    "numDestinations": 1,
    "rank": 87
  },
  {
    "iata": "ROC",
    "icao": "KROC",
    "name": "Frederick Douglass/Greater Rochester International Airport",
    "city": "Rochester",
    "lat": 43.1191436111,
    "lon": -77.6718688889,
    "numRoutes": 1792,
    "numDestinations": 1,
    "rank": 88
  },
  {
    "iata": "SYR",
    "icao": "KSYR",
    "name": "Syracuse Hancock International Airport",
    "city": "Syracuse",
    "lat": 43.1111944444,
    "lon": -76.1063055556,
    "numRoutes": 1792,
    "numDestinations": 1,
    "rank": 89
  },
  {
    "iata": "TUL",
    "icao": "KTUL",
    "name": "Tulsa International Airport",
    "city": "Tulsa",
    "lat": 36.1983936111,
    "lon": -95.8881055556,
    "numRoutes": 1657,
    "numDestinations": 1,
    "rank": 90
  },
  {
    "iata": "RNO",
    "icao": "KRNO",
    "name": "Reno/Tahoe International Airport",
    "city": "Reno",
    "lat": 39.4991111111,
    "lon": -119.7681111111,
    "numRoutes": 1590,
    "numDestinations": 2,
    "rank": 91
  },
  {
    "iata": "ABQ",
    "icao": "KABQ",
    "name": "Albuquerque International Sunport Airport",
    "city": "Albuquerque",
    "lat": 35.0389315556,
    "lon": -106.6082621667,
    "numRoutes": 1582,
    "numDestinations": 3,
    "rank": 92
  },
  {
    "iata": "PVD",
    "icao": "KPVD",
    "name": "Rhode Island Tf Green International Airport",
    "city": "Providence",
    "lat": 41.7223333333,
    "lon": -71.4277222222,
    "numRoutes": 1507,
    "numDestinations": 2,
    "rank": 93
  },
  {
    "iata": "TLH",
    "icao": "KTLH",
    "name": "Tallahassee International Airport",
    "city": "Tallahassee",
    "lat": 30.3967541667,
    "lon": -84.3508688889,
    "numRoutes": 1460,
    "numDestinations": 1,
    "rank": 94
  },
  {
    "iata": "FAI",
    "icao": "PAFA",
    "name": "Fairbanks International Airport",
    "city": "Fairbanks",
    "lat": 64.8153555556,
    "lon": -147.8566666667,
    "numRoutes": 1385,
    "numDestinations": 3,
    "rank": 95
  },
  {
    "iata": "AVL",
    "icao": "KAVL",
    "name": "Asheville Regional Airport",
    "city": "Asheville",
    "lat": 35.4361130556,
    "lon": -82.5420475,
    "numRoutes": 1365,
    "numDestinations": 1,
    "rank": 96
  },
  {
    "iata": "KOA",
    "icao": "PHKO",
    "name": "Ellison Onizuka Kona International At Keahole Airport",
    "city": "Kailua/Kona",
    "lat": 19.7387658333,
    "lon": -156.0456313889,
    "numRoutes": 1340,
    "numDestinations": 2,
    "rank": 97
  },
  {
    "iata": "ELP",
    "icao": "KELP",
    "name": "El Paso International Airport",
    "city": "El Paso",
    "lat": 31.8073333333,
    "lon": -106.3763611111,
    "numRoutes": 1305,
    "numDestinations": 1,
    "rank": 98
  },
  {
    "iata": "MDW",
    "icao": "KMDW",
    "name": "Chicago Midway International Airport",
    "city": "Chicago",
    "lat": 41.7859722222,
    "lon": -87.7524166667,
    "numRoutes": 1276,
    "numDestinations": 2,
    "rank": 99
  },
  {
    "iata": "PSP",
    "icao": "KPSP",
    "name": "Palm Springs International Airport",
    "city": "Palm Springs",
    "lat": 33.8296666667,
    "lon": -116.5066944444,
    "numRoutes": 1222,
    "numDestinations": 3,
    "rank": 100
  },
  {
    "iata": "FCA",
    "icao": "KGPI",
    "name": "Glacier Park International Airport",
    "city": "Kalispell",
    "lat": 48.3105,
    "lon": -114.256,
    "numRoutes": 1201,
    "numDestinations": 3,
    "rank": 101
  },
  {
    "iata": "BIL",
    "icao": "KBIL",
    "name": "Billings Logan International Airport",
    "city": "Billings",
    "lat": 45.8078491389,
    "lon": -108.5435435556,
    "numRoutes": 1067,
    "numDestinations": 2,
    "rank": 102
  },
  {
    "iata": "PWM",
    "icao": "KPWM",
    "name": "Portland International Jetport Airport",
    "city": "Portland",
    "lat": 43.6456435,
    "lon": -70.3086163611,
    "numRoutes": 1033,
    "numDestinations": 3,
    "rank": 103
  },
  {
    "iata": "OAK",
    "icao": "KOAK",
    "name": "Metro Oakland International Airport",
    "city": "Oakland",
    "lat": 37.72125,
    "lon": -122.2211388889,
    "numRoutes": 1029,
    "numDestinations": 1,
    "rank": 104
  },
  {
    "iata": "LIH",
    "icao": "PHLI",
    "name": "Lihue Airport",
    "city": "Lihue",
    "lat": 21.9759833333,
    "lon": -159.3389577778,
    "numRoutes": 952,
    "numDestinations": 2,
    "rank": 105
  },
  {
    "iata": "LEX",
    "icao": "KLEX",
    "name": "Blue Grass Airport",
    "city": "Lexington",
    "lat": 38.03675,
    "lon": -84.6086388889,
    "numRoutes": 943,
    "numDestinations": 1,
    "rank": 106
  },
  {
    "iata": "DAY",
    "icao": "KDAY",
    "name": "James M Cox Dayton International Airport",
    "city": "Dayton",
    "lat": 39.9022522222,
    "lon": -84.2194122222,
    "numRoutes": 914,
    "numDestinations": 1,
    "rank": 107
  },
  {
    "iata": "TYS",
    "icao": "KTYS",
    "name": "Mc Ghee Tyson Airport",
    "city": "Knoxville",
    "lat": 35.8110911111,
    "lon": -83.9940672222,
    "numRoutes": 901,
    "numDestinations": 1,
    "rank": 108
  },
  {
    "iata": "CHA",
    "icao": "KCHA",
    "name": "Lovell Field",
    "city": "Chattanooga",
    "lat": 35.0351944444,
    "lon": -85.2035555556,
    "numRoutes": 870,
    "numDestinations": 1,
    "rank": 109
  },
  {
    "iata": "ALB",
    "icao": "KALB",
    "name": "Albany International Airport",
    "city": "Albany",
    "lat": 42.7491161111,
    "lon": -73.80198,
    "numRoutes": 827,
    "numDestinations": 1,
    "rank": 110
  },
  {
    "iata": "ATW",
    "icao": "KATW",
    "name": "Appleton International Airport",
    "city": "Appleton",
    "lat": 44.2580930556,
    "lon": -88.5190722222,
    "numRoutes": 792,
    "numDestinations": 1,
    "rank": 111
  },
  {
    "iata": "FAR",
    "icao": "KFAR",
    "name": "Hector International Airport",
    "city": "Fargo",
    "lat": 46.9206388889,
    "lon": -96.81575,
    "numRoutes": 730,
    "numDestinations": 1,
    "rank": 112
  },
  {
    "iata": "MSO",
    "icao": "KMSO",
    "name": "Missoula Montana Airport",
    "city": "Missoula",
    "lat": 46.9163055556,
    "lon": -114.0905555556,
    "numRoutes": 722,
    "numDestinations": 3,
    "rank": 113
  },
  {
    "iata": "ICT",
    "icao": "KICT",
    "name": "Wichita Dwight D Eisenhower Ntl Airport",
    "city": "Wichita",
    "lat": 37.6499525,
    "lon": -97.4330427778,
    "numRoutes": 699,
    "numDestinations": 1,
    "rank": 114
  },
  {
    "iata": "TVC",
    "icao": "KTVC",
    "name": "Cherry Capital Airport",
    "city": "Traverse City",
    "lat": 44.7415786111,
    "lon": -85.58187,
    "numRoutes": 698,
    "numDestinations": 2,
    "rank": 115
  },
  {
    "iata": "AGS",
    "icao": "KAGS",
    "name": "Augusta Regional At Bush Field",
    "city": "Augusta",
    "lat": 33.3699444444,
    "lon": -81.9645,
    "numRoutes": 595,
    "numDestinations": 1,
    "rank": 116
  },
  {
    "iata": "DSM",
    "icao": "KDSM",
    "name": "Des Moines International Airport",
    "city": "Des Moines",
    "lat": 41.5339727778,
    "lon": -93.6630722222,
    "numRoutes": 594,
    "numDestinations": 1,
    "rank": 117
  },
  {
    "iata": "STX",
    "icao": "TISX",
    "name": "Henry E Rohlsen Airport",
    "city": "Christiansted",
    "lat": 17.7015044444,
    "lon": -64.8019429167,
    "numRoutes": 576,
    "numDestinations": 1,
    "rank": 118
  },
  {
    "iata": "GPT",
    "icao": "KGPT",
    "name": "Gulfport-Biloxi International Airport",
    "city": "Gulfport",
    "lat": 30.4072691667,
    "lon": -89.0700958333,
    "numRoutes": 555,
    "numDestinations": 1,
    "rank": 119
  },
  {
    "iata": "FSD",
    "icao": "KFSD",
    "name": "Joe Foss Field",
    "city": "Sioux Falls",
    "lat": 43.5820180556,
    "lon": -96.741925,
    "numRoutes": 524,
    "numDestinations": 2,
    "rank": 120
  },
  {
    "iata": "GRB",
    "icao": "KGRB",
    "name": "Green Bay/Austin Straubel International Airport",
    "city": "Green Bay",
    "lat": 44.4846336111,
    "lon": -88.1297133333,
    "numRoutes": 484,
    "numDestinations": 1,
    "rank": 121
  },
  {
    "iata": "ILM",
    "icao": "KILM",
    "name": "Wilmington International Airport",
    "city": "Wilmington",
    "lat": 34.2711388889,
    "lon": -77.9028888889,
    "numRoutes": 474,
    "numDestinations": 1,
    "rank": 122
  },
  {
    "iata": "HPN",
    "icao": "KHPN",
    "name": "Westchester County Airport",
    "city": "White Plains",
    "lat": 41.0669530556,
    "lon": -73.7075661111,
    "numRoutes": 375,
    "numDestinations": 1,
    "rank": 123
  },
  {
    "iata": "EGE",
    "icao": "KEGE",
    "name": "Eagle County Regional Airport",
    "city": "Eagle",
    "lat": 39.64275,
    "lon": -106.9159444444,
    "numRoutes": 364,
    "numDestinations": 1,
    "rank": 124
  },
  {
    "iata": "RAP",
    "icao": "KRAP",
    "name": "Rapid City Regional Airport",
    "city": "Rapid City",
    "lat": 44.0453333333,
    "lon": -103.0573611111,
    "numRoutes": 324,
    "numDestinations": 2,
    "rank": 125
  },
  {
    "iata": "CID",
    "icao": "KCID",
    "name": "The Eastern Iowa Airport",
    "city": "Cedar Rapids",
    "lat": 41.8846885833,
    "lon": -91.7107986111,
    "numRoutes": 262,
    "numDestinations": 1,
    "rank": 126
  },
  {
    "iata": "ROA",
    "icao": "KROA",
    "name": "Roanoke/Blacksburg Regional (Woodrum Field) Airport",
    "city": "Roanoke",
    "lat": 37.3254722222,
    "lon": -79.9754166667,
    "numRoutes": 221,
    "numDestinations": 1,
    "rank": 127
  },
  {
    "iata": "FAY",
    "icao": "KFAY",
    "name": "Fayetteville Regional/Grannis Field",
    "city": "Fayetteville",
    "lat": 34.9912111111,
    "lon": -78.8802741667,
    "numRoutes": 221,
    "numDestinations": 1,
    "rank": 128
  },
  {
    "iata": "JNU",
    "icao": "PAJN",
    "name": "Juneau International Airport",
    "city": "Juneau",
    "lat": 58.3547118056,
    "lon": -134.5784705278,
    "numRoutes": 214,
    "numDestinations": 1,
    "rank": 129
  },
  {
    "iata": "LGB",
    "icao": "KLGB",
    "name": "Long Beach (Daugherty Field) Airport",
    "city": "Long Beach",
    "lat": 33.8179297222,
    "lon": -118.1518905556,
    "numRoutes": 190,
    "numDestinations": 1,
    "rank": 130
  },
  {
    "iata": "XNA",
    "icao": "KXNA",
    "name": "Northwest Arkansas Ntl Airport",
    "city": "Fayetteville/Springdale/Rogers",
    "lat": 36.2815791667,
    "lon": -94.3077655556,
    "numRoutes": 188,
    "numDestinations": 1,
    "rank": 131
  },
  {
    "iata": "MDT",
    "icao": "KMDT",
    "name": "Harrisburg International Airport",
    "city": "Harrisburg",
    "lat": 40.1931916667,
    "lon": -76.7626191667,
    "numRoutes": 154,
    "numDestinations": 1,
    "rank": 132
  },
  {
    "iata": "GNV",
    "icao": "KGNV",
    "name": "Gainesville Regional Airport",
    "city": "Gainesville",
    "lat": 29.6900555556,
    "lon": -82.2717777778,
    "numRoutes": 139,
    "numDestinations": 1,
    "rank": 133
  },
  {
    "iata": "MOB",
    "icao": "KMOB",
    "name": "Mobile Regional Airport",
    "city": "Mobile",
    "lat": 30.6914166667,
    "lon": -88.2428333333,
    "numRoutes": 62,
    "numDestinations": 1,
    "rank": 134
  },
  {
    "iata": "BIS",
    "icao": "KBIS",
    "name": "Bismarck Municipal Airport",
    "city": "Bismarck",
    "lat": 46.7727338889,
    "lon": -100.7457375,
    "numRoutes": 60,
    "numDestinations": 1,
    "rank": 135
  },
  {
    "iata": "HDN",
    "icao": "KHDN",
    "name": "Yampa Valley Airport",
    "city": "Hayden",
    "lat": 40.4811944444,
    "lon": -107.2176666667,
    "numRoutes": 56,
    "numDestinations": 2,
    "rank": 136
  },
  {
    "iata": "BGR",
    "icao": "KBGR",
    "name": "Bangor International Airport",
    "city": "Bangor",
    "lat": 44.8074444444,
    "lon": -68.8281388889,
    "numRoutes": 30,
    "numDestinations": 1,
    "rank": 137
  },
  {
    "iata": "MTJ",
    "icao": "KMTJ",
    "name": "Montrose Regional Airport",
    "city": "Montrose",
    "lat": 38.5098055556,
    "lon": -107.89425,
    "numRoutes": 28,
    "numDestinations": 1,
    "rank": 138
  }
]
